     3.02           OBSERVATION DATA    M: MIXED            RINEX VERSION / TYPE
GR50 V4.31          IGG of WUELS        20191112 004442 UTC PGM / RUN BY / DATE
SNR is mapped to RINEX snr flag value [1-9]                 COMMENT
LX:     < 12dBHz -> 1; 12-17dBHz -> 2; 18-23dBHz -> 3       COMMENT
       24-29dBHz -> 4; 30-35dBHz -> 5; 36-41dBHz -> 6       COMMENT
       42-47dBHz -> 7; 48-53dBHz -> 8; >= 54dBHz -> 9       COMMENT
WROC                                                        MARKER NAME
12217M001                                                   MARKER NUMBER
Jan Sierny          IGG of WUELS                            OBSERVER / AGENCY
1830242             LEICA GR50          4.31/7.403          REC # / TYPE / VERS
725270              LEIAR25.R4      LEIT                    ANT # / TYPE
  3835751.6257  1177249.7445  4941605.0540                  APPROX POSITION XYZ
        0.0000        0.0000        0.0000                  ANTENNA: DELTA H/E/N
G   16 C1C L1C D1C S1C C2S L2S D2S S2S C2W L2W D2W S2W C5Q  SYS / # / OBS TYPES
       L5Q D5Q S5Q                                          SYS / # / OBS TYPES
R   12 C1C L1C D1C S1C C2P L2P D2P S2P C2C L2C D2C S2C      SYS / # / OBS TYPES
E   16 C1C L1C D1C S1C C5Q L5Q D5Q S5Q C7Q L7Q D7Q S7Q C8Q  SYS / # / OBS TYPES
       L8Q D8Q S8Q                                          SYS / # / OBS TYPES
C    8 C1I L1I D1I S1I C7I L7I D7I S7I                      SYS / # / OBS TYPES
J   12 C1C L1C D1C S1C C2S L2S D2S S2S C5Q L5Q D5Q S5Q      SYS / # / OBS TYPES
S    4 C1C L1C D1C S1C                                      SYS / # / OBS TYPES
DBHZ                                                        SIGNAL STRENGTH UNIT
     1.000                                                  INTERVAL
  2019    11    12    00    45    0.0000000     GPS         TIME OF FIRST OBS
  2019    11    12    00    59   59.0000000     GPS         TIME OF LAST OBS
     0                                                      RCV CLOCK OFFS APPL
G L2S -0.25000                                              SYS / PHASE SHIFT
G L2X -0.25000                                              SYS / PHASE SHIFT
R L2P  0.25000                                              SYS / PHASE SHIFT
E L8Q -0.25000                                              SYS / PHASE SHIFT
 24 R01  1 R02 -4 R03  5 R04  6 R05  1 R06 -4 R07  5 R08  6 GLONASS SLOT / FRQ #
    R09 -2 R10 -5 R11  0 R12 -1 R13 -2 R14 -7 R15  0 R16 -1 GLONASS SLOT / FRQ #
    R17  4 R18 -3 R19  3 R20  2 R21  4 R22 -3 R23  3 R24  2 GLONASS SLOT / FRQ #
 C1C  -71.940 C1P  -71.940 C2C  -71.940 C2P  -71.940        GLONASS COD/PHS/BIS
    18    18  1929     7                                    LEAP SECONDS
                                                            END OF HEADER
> 2019 11 12 00 45  0.0000000  0 42
G02  24855557.248   130616859.49507     -3089.557          45.850                                                                    24855555.215   101779377.97106     -2407.446          38.900
G05  23282788.537   122351904.04708      1219.528          51.550    23282789.629    95339176.62307       950.281          44.700    23282789.177    95339162.61606       950.281          41.100
G09  25637039.790                         948.955          32.300    25637043.347   104979405.92004       739.456          27.650    25637042.243                         739.446          31.900
G12  25343245.060   133179648.03807     -3657.758          45.500    25343246.680   103776357.32306     -2850.199          37.600    25343246.226   103776344.32305     -2850.199          34.700
G16  24352498.443   127973243.33207      3539.767          43.450                                                                    24352497.918    99719439.34006      2758.260          36.750
G21  22356996.995   117486815.27808      2730.971          49.200                                                                    22356997.961    91548164.73407      2128.030          43.250
G23  25551968.269   134276497.48807      -182.237          44.500                                                                    25551966.235   104631042.96305      -142.003          33.950
G25  21649775.875   113770355.50008     -2709.574          53.450    21649779.668    88652244.12608     -2111.357          49.200    21649779.221    88652248.12207     -2111.357          46.950    21649778.750    84958403.92108     -2023.306          53.150
G26  22155308.858   116426956.12408      2718.493          49.500    22155312.665    90722313.69108      2118.307          49.000    22155312.712    90722312.69207      2118.308          46.300    22155310.390    86942209.58608      2030.023          51.700
G29  20282433.415   106584949.67409      -742.704          54.400    20282434.124    83053194.79208      -578.731          52.100    20282433.809    83053205.79508      -578.731          49.250
G31  21748460.570   114288922.02808     -1433.780          53.550    21748461.209    89056278.23808     -1117.232          48.200    21748460.779    89056281.22707     -1117.233          44.950
R05  23506738.660   125656990.86507     -1120.789          45.050    23506736.817    97733211.95006      -871.722          40.950    23506736.746    97733211.95006      -871.723          41.800
R06  23418594.328   124966100.42907      2287.472          42.700
R10  23348853.212   124550161.72607     -4431.109          42.600
R11  24039898.998   128461951.66707     -4513.108          44.900    24039898.838    99914851.25006     -3510.196          38.150    24039898.847    99914841.25306     -3510.194          39.400
R12  20155262.396   107665803.39108     -2809.069          51.000    20155262.205    83740065.51208     -2184.832          48.450    20155262.211    83740056.50308     -2184.833          48.850
R13  19745195.948   105438235.72807      1578.931          44.550    19745195.180    82007514.41107      1228.056          42.450    19745195.831    82007513.40706      1228.057          41.900
R14  23466799.394   125091245.20407      4206.710          44.950    23466799.010    97293193.58106      3271.887          39.800    23466798.969    97293194.59206      3271.888          41.000
R21  23237665.977   124349460.24507     -3988.468          46.350    23237663.576    96716251.24606     -3102.142          41.800    23237663.611    96716252.25907     -3102.143          42.350
R22  19461305.208   103885785.50508     -1437.190          51.800    19461304.459    80800066.12708     -1117.814          49.150    19461304.813    80800059.13308     -1117.814          48.800
R23  20676830.673   110607115.47708      2900.939          52.100    20676832.327    86027761.12507      2256.288          42.100    20676831.413    86027736.12707      2256.288          43.650
E04  28733428.014   150995185.44947      -579.721          43.150    28733429.578   112756147.32406      -432.778          39.800    28733426.811   115697605.60306      -444.154          40.100    28733428.002   114226874.12207      -438.387          42.650
E09  26885363.848   141283539.97847      1494.128          43.000    26885366.812   105503953.96106      1115.865          37.950    26885364.024   108256219.51006      1144.905          38.350    26885364.941   106880087.90206      1130.380          40.800
E13  26913285.536   141430265.21948      2957.794          48.750    26913290.338   105613525.55507      2208.793          44.800    26913286.972   108368643.62707      2266.396          45.800    26913288.143   106991085.75607      2237.592          47.800
E15  23338349.295   122643866.52448      1183.172          52.250    23338353.934    91584734.62508       883.575          53.400    23338351.163    93973888.57708       906.597          53.600    23338352.315    92779311.26609       895.093          56.100
E21  26481033.739   139158770.60748      2593.344          49.150    26481036.685   103917272.02007      1936.579          46.350    26481033.799   106628147.00008      1987.106          48.100    26481035.046   105272708.17708      1961.792          49.950
E27  23335861.790   122630798.55448       253.432          53.150    23335865.119    91574973.85908       189.270          53.550    23335862.318    93963871.02808       194.232          53.750    23335863.494    92769425.11009       191.731          56.300
E30  23646122.449   124261230.47048     -2394.930          52.650    23646126.277    92792496.90208     -1788.340          50.150    23646123.356    95213160.76108     -1835.045          50.600    23646124.617    94002830.00008     -1811.720          53.050
E36  28432847.236   149415653.72947     -2975.266          43.950    28432850.805   111576658.10206     -2221.795          39.850    28432848.245   114487338.92206     -2279.718          41.000    28432849.436   113031995.67707     -2250.726          43.150
C02  40739680.378   212142206.80906        30.118          37.700    40739673.620   164041780.92406        23.231          39.750
C05  39488379.609   205626370.64307        30.210          42.550    39488374.971   159003323.87006        23.446          41.600
C08  40125038.711   208941618.59406     -1278.020          41.300    40125031.449   161566898.33806      -988.409          40.650
C11  22464662.748   116979425.84308     -1745.659          49.950    22464658.446    90455901.65808     -1349.747          50.150
C13  37925862.510   197489937.31808      -759.648          48.050    37925863.052   152711759.10907      -587.376          44.200
C21  25892683.474   134829999.12606      1510.830          41.800
C22  26688786.431   138975516.65407      -830.447          42.750
C23  22755599.654   118494379.95908     -1781.065          51.800
C25  25757025.624   134123619.19707     -3511.927          45.250
C28  23275566.382   121201997.05508      2401.125          50.850
J01  44145277.444   231985001.21506       136.420          41.800    44145278.129   180767532.26105       106.300          35.750    44145278.925   173235557.48106       101.925          37.650
S23  38618125.919   202939495.35708         1.240          48.950
S36  38577473.873   202726000.15507          .775          47.800
> 2019 11 12 00 45  1.0000000  0 42
G02  24856145.217   130619949.28307     -3089.762          45.800                                                                    24856143.184   101781785.59606     -2407.606          37.350
G05  23282556.521   122350684.78708      1218.928          51.550    23282557.612    95338226.55007       949.813          44.350    23282557.161    95338212.54306       949.814          40.250
G09  25636859.192                         948.517          32.900    25636862.715   104978666.32904       739.110          26.700
G12  25343941.073   133183305.61607     -3657.636          45.350    25343942.693   103779207.38406     -2850.104          37.550    25343942.237   103779194.37806     -2850.105          36.300
G16  24351824.855   127969703.62407      3539.635          43.700                                                                    24351824.329    99716681.13106      2758.158          36.150
G21  22356477.346   117484084.51308      2730.484          49.200                                                                    22356478.312    91546036.86607      2127.650          43.700
G23  25552002.965   134276679.77407      -182.630          44.250                                                                    25552000.933   104631184.99405      -142.310          33.850
G25  21650291.513   113773065.19708     -2710.021          53.550    21650295.307    88654355.57908     -2111.705          49.100    21650294.859    88654359.57307     -2111.706          46.700    21650294.388    84960427.39508     -2023.646          52.900
G26  22154791.567   116424237.74308      2718.184          49.550    22154795.376    90720195.47608      2118.067          48.900    22154795.423    90720194.47707      2118.067          45.600    22154793.099    86940179.62608      2029.881          51.400
G29  20282574.761   106585692.46009      -743.041          54.500    20282575.471    83053773.58708      -578.993          52.000    20282575.155    83053784.58908      -578.993          49.050
G31  21748733.463   114290356.07808     -1434.286          53.650    21748734.102    89057395.67807     -1117.627          47.950    21748733.672    89057398.67007     -1117.627          45.000
R05  23506948.383   125658111.94707     -1121.701          45.050    23506946.541    97734083.90806      -872.431          40.950    23506946.469    97734083.90206      -872.432          41.600
R06  23418165.698   124963813.22107      2286.736          42.550
R10  23349683.867   124554592.71607     -4431.099          42.450
R11  24040743.550   128466464.70607     -4513.068          44.900    24040743.388    99918361.39106     -3510.164          37.800    24040743.399    99918351.39806     -3510.162          39.400
R12  20155788.314   107668612.75308     -2809.656          50.800    20155788.124    83742250.57308     -2185.288          48.050    20155788.130    83742241.56308     -2185.289          48.450
R13  19744900.320   105436657.08107      1578.054          44.350    19744899.552    82006286.57207      1227.375          42.050    19744900.203    82006285.56906      1227.375          41.600
R14  23466010.216   125087038.45207      4206.648          44.900    23466009.831    97289921.66306      3271.839          39.600    23466009.791    97289922.67706      3271.840          40.650
R21  23238411.290   124353448.55507     -3988.416          46.350    23238408.891    96719353.26206     -3102.102          41.450    23238408.925    96719354.27406     -3102.102          41.900
R22  19461574.474   103887222.86708     -1437.693          51.800    19461573.726    80801184.07708     -1118.206          48.950    19461574.079    80801177.08108     -1118.206          48.550
R23  20676288.380   110604214.59608      2900.569          52.100    20676290.034    86025504.88806      2256.000          41.700    20676289.119    86025479.89107      2256.001          43.250
E04  28733538.342   150995765.28947      -580.040          43.250    28733539.901   112756580.34106      -433.229          39.500    28733537.130   115698049.89906      -444.401          40.150    28733538.323   114227312.77907      -438.823          42.400
E09  26885079.534   141282045.95447      1493.862          43.000    26885082.487   105502838.30106      1115.557          37.800    26885079.705   108255074.75506      1144.603          38.500    26885080.617   106878957.68806      1130.114          40.800
E13  26912722.690   141427307.44748      2957.663          49.000    26912727.490   105611316.83207      2208.702          44.600    26912724.125   108366377.28507      2266.328          45.750    26912725.293   106988848.21907      2237.544          47.750
E15  23338124.159   122642683.45348      1182.915          52.350    23338128.796    91583851.17008       883.292          53.200    23338126.025    93972982.07508       906.358          53.500    23338127.177    92778416.28809       894.814          56.100
E21  26480540.254   139156177.34048      2593.224          49.200    26480543.198   103915335.49407      1936.438          46.100    26480540.312   106626159.95008      1987.027          48.000    26480541.559   105270746.39108      1961.714          49.800
E27  23335813.586   122630545.23948       253.088          53.150    23335816.914    91574784.69408       189.004          53.200    23335814.114    93963676.93008       193.938          53.700    23335815.289    92769233.47809       191.458          56.200
E30  23646578.196   124263625.44148     -2395.124          52.650    23646582.024    92794285.35608     -1788.575          49.900    23646579.103    95214995.86808     -1835.206          50.550    23646580.363    94004641.77708     -1811.856          52.950
E36  28433413.380   149418628.86347     -2975.161          44.150    28433416.945   111578879.80306     -2221.790          39.350    28433414.383   114489618.56406     -2279.544          40.900    28433415.579   113034246.35907     -2250.807          43.000
C02  40739674.629   212142176.79906        30.239          37.300    40739667.877   164041757.69806        23.324          39.450
C05  39488373.758   205626340.17407        30.269          42.300    39488369.120   159003300.30906        23.663          41.500
C08  40125284.200   208942896.95206     -1278.300          41.150    40125276.937   161567886.85306      -988.496          40.650
C11  22464997.990   116981171.56708     -1745.849          49.700    22464993.685    90457251.57108     -1350.060          50.050
C13  37926008.397   197490696.98307      -759.667          47.750    37926008.940   152712346.52807      -587.350          44.150
C21  25892393.405   134828488.67206      1510.190          41.700
C22  26688945.933   138976347.17807      -830.962          42.400
C23  22755941.722   118496161.20108     -1781.525          51.400
C25  25757700.068   134127131.21007     -3512.040          45.050
C28  23275105.253   121199595.85008      2401.022          50.550
J01  44145251.494   231984864.85206       136.123          41.650    44145252.179   180767426.00505       106.069          35.950    44145252.974   173235455.64806       101.949          37.550
S23  38618125.667   202939494.05508         1.320          49.000
S36  38577473.665   202725999.08708         1.220          48.050